,City,Lat,Lng,Max Temp,Humidity,Cloudiness,Wind Speed,Country,Date
0,Esperance,-33.8667,121.9,69.8,43,2,12.66,AU,1610342210
1,Thompson,55.7435,-97.8558,8.6,85,75,2.3,CA,1610342110
2,Punta Arenas,-53.15,-70.9167,39.2,70,0,14.97,CL,1610342165
3,Saint Anthony,45.0205,-93.218,26.6,80,90,6.91,US,1610342212
4,Port Alfred,-33.5906,26.891,69.01,85,96,1.99,ZA,1610342213
5,Mount Gambier,-37.8333,140.7667,95.0,14,100,27.63,AU,1610342213
6,Lorengau,-2.0226,147.2712,84.65,67,18,3.6,PG,1610342214
7,Beloha,-25.1667,45.05,82.74,61,0,9.51,MG,1610342214
8,Rikitea,-23.1203,-134.9692,78.24,79,35,18.03,PF,1610342215
9,Atuona,-9.8,-139.0333,77.56,81,91,15.37,PF,1610342216
10,Jamestown,42.097,-79.2353,24.01,93,1,4.61,US,1610342170
11,Kosh-Agach,50.0,88.6667,5.16,90,100,1.86,RU,1610342217
12,Beringovskiy,63.05,179.3167,-21.08,84,7,14.03,RU,1610342218
13,Hermanus,-34.4187,19.2345,68.0,78,28,8.01,ZA,1610341982
15,Busselton,-33.65,115.3333,80.01,38,1,1.99,AU,1610342220
17,Gobabis,-22.45,18.9667,66.7,89,100,11.81,NA,1610342222
18,Kahului,20.8947,-156.47,75.2,64,40,13.8,US,1610342223
19,Zabul Province,32.25,67.25,35.87,53,0,3.96,AF,1610342224
20,Bethel,41.3712,-73.414,26.01,86,1,3.24,US,1610342224
21,Ushuaia,-54.8,-68.3,41.0,65,75,23.02,AR,1610342181
22,Khatanga,71.9667,102.5,-7.37,91,100,13.18,RU,1610342225
23,Den Helder,52.9599,4.7593,43.0,87,90,19.57,NL,1610342226
24,Allāpalli,19.4167,80.0667,87.69,33,3,0.83,IN,1610342227
25,Mahébourg,-20.4081,57.7,82.4,94,40,16.11,MU,1610342227
26,Riyadh,24.6877,46.7219,51.8,62,0,4.32,SA,1610341955
27,Vaini,-21.2,-175.2,82.4,78,75,6.91,TO,1610342228
30,Mosquera,4.7059,-74.2302,53.6,87,75,3.44,CO,1610342230
31,Saint George,37.1041,-113.5841,35.01,40,1,4.61,US,1610342231
32,Saint Paul Harbor,57.79,-152.4072,35.6,87,90,9.22,US,1610342232
33,Vila Velha,-20.3297,-40.2925,77.0,88,75,5.75,BR,1610342233
34,Tocopilla,-22.092,-70.1979,68.0,69,57,5.77,CL,1610342233
35,Cururupu,-1.8283,-44.8683,74.88,93,11,3.2,BR,1610342234
37,Puerto Ayora,-0.7393,-90.3518,72.0,92,6,4.65,EC,1610342235
39,Caravelas,-17.7125,-39.2481,75.15,90,6,5.79,BR,1610342237
40,Blackwater,-23.5833,148.8833,87.48,45,53,13.6,AU,1610342237
41,Clyde River,70.4692,-68.5914,5.0,85,90,12.66,CA,1610342239
42,Hong Kong,22.2855,114.1577,51.01,56,100,3.0,HK,1610342076
43,Anchorage,61.2181,-149.9003,30.99,80,1,11.05,US,1610342194
44,Castro,-24.7911,-50.0119,65.28,96,87,7.14,BR,1610342241
45,Broken Hill,-31.95,141.4333,96.8,13,50,8.05,AU,1610342241
48,Burgeo,47.6167,-57.6152,32.83,91,95,10.47,CA,1610342243
49,Airai,-8.9266,125.4092,72.68,94,30,1.61,TL,1610342244
50,Kapaa,22.0752,-159.319,75.2,83,1,10.36,US,1610342244
51,Arraial do Cabo,-22.9661,-42.0278,76.37,90,48,17.94,BR,1610342245
52,Hobart,-42.8794,147.3294,96.01,17,0,18.41,AU,1610342245
53,Narsaq,60.9167,-46.05,42.8,36,75,11.5,GL,1610342246
54,Mataura,-46.1927,168.8643,57.99,68,74,11.01,NZ,1610342247
58,Arkhipo-Osipovka,44.37,38.52,35.28,84,100,9.06,RU,1610342249
59,Souillac,-20.5167,57.5167,82.4,94,40,16.11,MU,1610342251
60,Samagaltay,50.6022,95.0047,-10.95,86,100,7.56,RU,1610342251
61,San Rafael,-34.6177,-68.3301,69.55,65,0,2.46,AR,1610342232
64,Ekhabi,53.5102,142.9671,-8.46,87,100,14.67,RU,1610342253
66,Kavieng,-2.5744,150.7967,84.24,69,92,3.51,PG,1610342255
67,Aran,40.6253,46.9756,30.2,100,34,2.3,AZ,1610342255
68,Hilo,19.7297,-155.09,75.2,73,90,5.75,US,1610342236
69,Carnarvon,-24.8667,113.6333,86.0,58,0,19.57,AU,1610342256
70,Faya,18.3851,42.4509,50.0,61,0,3.44,SA,1610342257
71,Laas,46.6166,10.7002,17.01,67,0,9.22,IT,1610342257
72,Bluff,-46.6,168.3333,57.99,68,47,11.01,NZ,1610342258
73,Bikaner,28.0167,73.3,63.9,28,0,5.59,IN,1610342110
74,San Miguel,13.4833,-88.1833,74.03,65,20,2.15,SV,1610342103
77,Bambous Virieux,-20.3428,57.7575,82.4,94,40,16.11,MU,1610342261
79,Santiago,-33.4569,-70.6483,59.0,58,0,6.91,CL,1610342162
81,Albany,42.6001,-73.9662,25.0,92,99,1.9,US,1610342263
82,Kiama,-34.6833,150.8667,82.99,65,58,8.99,AU,1610342263
83,North Bend,43.4065,-124.2243,48.99,100,90,3.44,US,1610342264
85,Nkayi,-4.1841,13.2884,70.41,93,100,0.81,CG,1610342265
86,Arrondissement de Beaune,47.0833,4.75,24.8,86,0,6.91,FR,1610342265
89,Yellowknife,62.456,-114.3525,6.8,85,75,4.61,CA,1610342109
92,Rosarito,32.3333,-117.0333,52.0,46,1,2.95,MX,1610342128
93,Raja,8.4596,25.678,58.03,34,2,4.45,SS,1610342270
95,Codrington,-38.2667,141.9667,93.78,21,100,16.62,AU,1610342271
96,Verkhoyansk,67.5447,133.385,-34.53,80,83,2.75,RU,1610342272
98,Port Augusta,-32.5,137.7667,102.2,12,100,18.41,AU,1610342273
101,Greytown,-29.0642,30.5928,63.61,89,73,0.89,ZA,1610342275
102,Hibbing,47.4272,-92.9377,25.0,86,90,4.61,US,1610342276
103,Avarua,-21.2078,-159.775,82.4,78,40,9.22,CK,1610342276
104,Brigantine,39.4101,-74.3646,33.01,80,21,3.74,US,1610342277
105,Vardø,70.3705,31.1107,12.2,79,75,14.97,NO,1610342278
109,Fairbanks,64.8378,-147.7164,14.0,78,75,4.61,US,1610342156
111,Broome,42.2506,-75.833,24.8,86,90,0.65,US,1610342281
113,Kjøllefjord,70.9457,27.3465,14.0,67,0,25.32,NO,1610342282
114,Tura,25.5198,90.2201,76.59,43,14,4.34,IN,1610342113
115,Barrow,71.2906,-156.7887,3.2,85,90,13.8,US,1610342284
116,Saskylakh,71.9167,114.0833,-8.12,88,100,15.14,RU,1610342284
117,Lavrentiya,65.5833,-171.0,-13.58,83,100,11.92,RU,1610342286
119,Dzaoudzi,-12.7887,45.2699,84.2,74,40,11.5,YT,1610342287
120,Cape Town,-33.9258,18.4232,66.2,68,0,11.5,ZA,1610342227
121,Sitka,57.0531,-135.33,42.8,81,90,16.11,US,1610342288
123,Tilichiki,60.4667,166.1,-5.82,92,100,12.08,RU,1610342289
124,Tuktoyaktuk,69.4541,-133.0374,8.6,92,75,9.22,CA,1610342290
130,Tiksi,71.6872,128.8694,-24.88,84,100,14.18,RU,1610342293
131,Ponta do Sol,32.6667,-17.1,52.0,73,23,4.0,PT,1610342294
135,Dikson,73.5069,80.5464,18.21,97,100,12.88,RU,1610342296
136,Tiznit Province,29.5833,-9.5,46.18,91,81,6.49,MA,1610342296
137,Kudahuvadhoo,2.6708,72.8944,81.21,72,89,11.05,MV,1610342297
138,George Town,5.4112,100.3354,87.8,55,20,4.61,MY,1610342186
140,Mehamn,71.0357,27.8492,14.0,67,0,25.32,NO,1610342299
141,Vanavara,60.34,102.2797,-15.29,88,99,5.68,RU,1610342299
143,Cherskiy,68.75,161.3,-34.69,83,38,0.29,RU,1610342300
144,Marsh Harbour,26.5412,-77.0636,67.91,59,100,6.51,BS,1610342301
145,Atar,20.5169,-13.0499,53.35,43,92,11.25,MR,1610342175
148,Provideniya,64.3833,-173.3,-0.4,71,75,15.66,RU,1610342303
150,Taltal,-25.4,-70.4833,63.25,75,57,1.57,CL,1610342304
155,Butaritari,3.0707,172.7902,81.52,81,100,19.15,KI,1610342307
156,Qaanaaq,77.484,-69.3632,-0.58,74,0,5.86,GL,1610342308
157,Mar del Plata,-38.0023,-57.5575,64.99,94,90,8.05,AR,1610342308
158,Kruisfontein,-34.0033,24.7314,69.01,75,88,1.99,ZA,1610342309
160,Kopervik,59.2835,5.3067,34.0,100,90,4.61,NO,1610342310
163,Sabha,27.0377,14.4283,59.7,34,100,15.35,LY,1610342313
164,Portland,45.5234,-122.6762,45.0,76,75,9.22,US,1610342044
168,Ampanihy,-24.7,44.75,86.05,51,0,6.02,MG,1610342315
169,Abū Zabad,12.35,29.25,61.39,28,0,11.03,SD,1610342316
170,Road Town,18.4167,-64.6167,78.01,93,55,1.99,VG,1610342192
171,Dwārka,22.2394,68.9678,71.22,47,0,16.6,IN,1610342317
172,Hithadhoo,-0.6,73.0833,81.41,76,100,14.7,MV,1610342318
173,Lompoc,34.6391,-120.4579,53.01,87,1,7.05,US,1610342123
175,Marawi,7.9986,124.2928,80.01,88,98,7.0,PH,1610342319
176,Russkiy Aktash,55.0384,52.1214,-0.4,85,90,6.71,RU,1610342320
178,Hell,63.4455,10.9033,26.01,79,0,3.44,NO,1610342321
180,Iqaluit,63.7506,-68.5145,1.4,78,90,5.75,CA,1610342322
185,Punto Fijo,11.6956,-70.1996,78.71,79,42,23.62,VE,1610342325
186,Gangelt,50.9833,6.0,34.0,86,90,9.22,DE,1610342326
187,Khandyga,62.6667,135.6,-36.65,82,100,0.69,RU,1610342327
188,Naze,28.3667,129.4833,59.0,67,75,4.61,JP,1610342327
190,Husavik,66.0449,-17.3389,21.2,79,90,8.05,IS,1610342328
194,Barra de Tecoanapa,16.5167,-98.75,75.15,80,100,3.83,MX,1610342330
198,Grindavik,63.8424,-22.4338,19.4,63,0,4.61,IS,1610342332
199,Yulara,-25.2406,130.9889,100.4,9,26,17.27,AU,1610342333
200,Leningradskiy,69.3833,178.4167,-22.29,83,96,10.49,RU,1610342334
202,Turukhansk,65.8167,87.9833,-24.66,80,43,2.82,RU,1610342336
205,Severo-Kuril'sk,50.6789,156.125,19.69,88,99,21.34,RU,1610342337
206,Casablanca,33.5928,-7.6192,44.6,100,0,6.91,MA,1610342338
209,Sioux Lookout,50.1001,-91.917,24.8,86,90,5.75,CA,1610342340
210,Banda Aceh,5.5577,95.3222,83.3,69,89,6.51,ID,1610342340
211,Dubbo,-32.25,148.6167,86.0,35,0,8.05,AU,1610342341
212,Lázaro Cárdenas,17.9583,-102.2,71.47,86,6,3.96,MX,1610342342
213,Los Llanos de Aridane,28.6585,-17.9182,60.8,63,40,12.66,ES,1610342343
216,Constitución,-35.3333,-72.4167,56.35,90,98,3.89,CL,1610342345
217,Novoleushkovskaya,45.9956,39.9921,31.12,95,97,2.59,RU,1610342345
218,Kamenka,51.3223,42.7678,9.97,96,85,8.25,RU,1610342346
220,Port Hardy,50.6996,-127.4199,46.4,93,90,20.71,CA,1610342347
221,Humaitá,-7.5061,-63.0208,74.12,97,30,2.77,BR,1610342348
225,Nanortalik,60.1432,-45.2371,32.02,94,100,3.31,GL,1610342350
226,Aklavik,68.2191,-135.0107,-0.4,85,100,1.14,CA,1610342351
228,Puerto del Rosario,28.5004,-13.8627,57.2,67,0,8.05,ES,1610342352
230,Tasiilaq,65.6145,-37.6368,21.2,53,90,2.3,GL,1610342354
232,Evensk,61.95,159.2333,7.93,89,100,17.16,RU,1610342355
236,Port Macquarie,-31.4333,152.9167,82.0,46,16,1.99,AU,1610342357
238,Sanghar,26.0466,68.9481,57.2,47,1,4.61,PK,1610342358
239,Cabo San Lucas,22.8909,-109.9124,62.01,70,0,3.0,MX,1610342148
240,Chui,-33.6971,-53.4616,72.81,89,13,10.76,UY,1610342359
241,Magdagachi,53.45,125.8,-5.26,83,0,1.97,RU,1610342360
242,Hasaki,35.7333,140.8333,45.0,42,75,3.44,JP,1610342360
243,Alofi,-19.0595,-169.9187,82.4,78,40,10.36,NU,1610342361
244,Buenaventura,3.8801,-77.0312,62.01,81,74,2.24,CO,1610342361
247,East London,-33.0153,27.9116,66.2,94,90,4.61,ZA,1610342363
248,Shakawe,-18.3667,21.85,71.2,86,98,1.39,BW,1610342363
250,Dabakala,8.3667,-4.4333,74.84,80,23,4.76,CI,1610342364
253,Divnogorsk,55.9594,92.3619,3.2,72,0,6.71,RU,1610342367
256,Changji,44.0167,87.3167,-4.0,84,75,5.82,CN,1610342369
258,Asău,46.4333,26.4,30.2,100,90,8.05,RO,1610342371
260,Margate,51.3813,1.3862,39.99,90,97,1.99,GB,1610342111
262,Rāhon,31.05,76.1167,57.97,51,0,6.93,IN,1610342374
266,Morehead,37.2711,-87.1764,30.2,69,90,3.44,US,1610342376
267,Weligama,5.9667,80.4167,84.74,65,98,3.04,LK,1610342377
268,Ixtapa,20.7,-105.2,63.88,73,1,2.46,MX,1610342370
269,Gisborne,-38.6533,178.0042,72.0,73,0,4.0,NZ,1610342378
270,Yeniseysk,58.4497,92.1703,-7.58,90,97,2.98,RU,1610342379
271,Mineral Wells,32.8085,-98.1128,35.01,93,90,5.75,US,1610342380
273,Port Hedland,-20.3167,118.5667,98.6,53,19,12.66,AU,1610342381
275,Chokurdakh,70.6333,147.9167,-33.88,84,0,7.56,RU,1610342382
277,The Valley,18.217,-63.0578,78.8,73,40,11.5,AI,1610342383
278,New Norfolk,-42.7826,147.0587,96.01,13,88,5.99,AU,1610342383
284,Ürümqi,43.801,87.6005,-4.0,84,75,14.43,CN,1610342387
285,Miracema do Tocantins,-9.5618,-48.3967,73.0,90,72,3.04,BR,1610342387
286,Nikolskoye,59.7035,30.7861,6.01,78,0,6.71,RU,1610342388
289,Nieves,15.3274,120.9485,82.4,54,75,9.22,PH,1610342390
290,Kailua,21.4022,-157.7394,75.2,69,75,8.05,US,1610342390
292,Port Perry,44.1068,-78.9444,26.01,100,90,4.74,CA,1610342391
293,Hofn,64.2539,-15.2082,27.0,86,0,17.63,IS,1610342392
294,Sooke,48.3746,-123.7276,46.4,87,100,2.3,CA,1610342109
295,Baykit,61.67,96.37,-16.92,82,95,3.24,RU,1610342393
304,Bengkulu,-3.8004,102.2655,85.14,64,100,6.64,ID,1610342398
307,Upernavik,72.7868,-56.1549,11.95,87,99,13.29,GL,1610342399
308,Baoro,5.6667,15.9667,63.68,30,0,0.83,CF,1610342400
311,Guarapari,-20.6667,-40.4975,77.0,88,75,5.75,BR,1610342402
312,City of San Pedro,14.35,121.0167,84.0,65,75,5.75,PH,1610342403
315,Dunedin,-45.8742,170.5036,57.11,65,68,4.94,NZ,1610342405
317,Saint-Philippe,-21.3585,55.7679,82.4,89,75,16.11,RE,1610342406
321,Kedrovyy,56.1667,91.8167,3.2,72,0,6.71,RU,1610342408
325,Tombouctou,20.0,-3.0,59.7,32,13,13.09,ML,1610342411
328,Tuatapere,-46.1333,167.6833,57.99,68,91,10.0,NZ,1610342413
333,Lamar,33.6668,-95.5836,36.0,86,90,5.75,US,1610342416
334,Mandalgovi,45.7625,106.2708,5.29,81,81,13.09,MN,1610342416
338,São Filipe,14.8961,-24.4956,69.08,73,53,18.79,CV,1610342419
340,São João da Barra,-21.6403,-41.0511,76.6,87,0,17.94,BR,1610342420
342,Port Elizabeth,-33.918,25.5701,69.8,73,75,10.36,ZA,1610342201
343,Bail-Hongal,15.8167,74.8667,80.6,57,20,11.5,IN,1610342422
344,Sangar,63.9242,127.4739,-34.49,82,100,5.41,RU,1610342422
346,Crib Point,-38.35,145.2,98.01,21,100,5.99,AU,1610342424
347,Norman Wells,65.282,-126.8329,-2.2,84,20,2.3,CA,1610342424
349,Mocuba,-16.8392,36.9856,80.64,79,94,1.52,MZ,1610342425
351,Geraldton,-28.7667,114.6,87.8,37,0,25.32,AU,1610342426
352,Semnan,35.5729,53.3971,37.18,64,0,1.48,IR,1610342427
353,Kokstad,-30.5472,29.4241,60.76,92,100,2.93,ZA,1610342428
356,Ca Mau,9.1769,105.15,83.1,59,37,6.96,VN,1610342429
359,Mogadishu,2.0371,45.3438,76.71,74,52,22.88,SO,1610342284
360,Laguna,38.421,-121.4238,48.2,81,1,4.61,US,1610342431
362,Torbay,47.6666,-52.7314,33.01,93,90,21.85,CA,1610342432
365,Shingū,33.7333,135.9833,46.4,46,40,9.22,JP,1610342434
366,Cartagena,10.3997,-75.5144,78.8,94,40,4.61,CO,1610342434
369,Benghazi,32.1167,20.0667,66.63,50,67,23.96,LY,1610342437
370,Yangi Marg`ilon,40.4272,71.7189,33.8,44,0,2.3,UZ,1610342437
373,Namtsy,62.7161,129.6658,-50.8,52,90,3.11,RU,1610342439
377,Evanston,42.0411,-87.6901,27.0,74,90,9.22,US,1610342388
381,São Félix do Xingu,-6.6447,-51.995,72.12,95,99,1.36,BR,1610342413
383,Władysławowo,54.7909,18.4009,33.01,93,90,10.36,PL,1610342446
384,Pevek,69.7008,170.3133,-27.85,87,100,2.42,RU,1610342446
387,Bredasdorp,-34.5322,20.0403,64.4,82,84,8.05,ZA,1610342448
391,Padang,-0.9492,100.3543,87.85,56,98,3.71,ID,1610342452
392,Kayerkan,69.3497,87.7602,-11.16,89,100,10.63,RU,1610342453
394,Parintins,-2.6283,-56.7358,72.86,96,46,1.28,BR,1610342454
401,Matagami,49.7502,-77.6328,15.8,92,90,6.91,CA,1610342458
403,Chegdomyn,51.1167,133.0167,-13.27,83,62,1.81,RU,1610342461
404,Talnakh,69.4865,88.3972,-15.09,87,100,8.37,RU,1610342461
410,Ilulissat,69.2167,-51.1,26.6,74,75,5.75,GL,1610342465
411,Lethem,3.3803,-59.7968,74.8,84,65,9.98,GY,1610342465
415,Alice Springs,-23.7,133.8833,95.0,20,39,9.22,AU,1610342467
418,Saint-Leu,-21.15,55.2833,82.4,89,75,16.11,RE,1610342469
419,Zhigansk,66.7697,123.3711,-36.49,82,100,8.12,RU,1610342470
422,Campo Maior,-4.8278,-42.1686,73.06,94,88,4.5,BR,1610342471
423,Kaitangata,-46.2817,169.8464,59.0,58,75,5.99,NZ,1610342473
424,Bacalar,18.6667,-88.3833,68.11,90,59,4.47,MX,1610342473
428,Sinnamary,5.3833,-52.95,76.75,87,94,12.21,GF,1610342475
430,Biak,-0.9131,122.8766,85.05,69,93,2.48,ID,1610342476
435,Vernon,50.2581,-119.2691,37.0,80,38,4.61,CA,1610342345
438,Fortuna,40.5982,-124.1573,51.01,100,90,4.03,US,1610342481
439,Satipo,-11.2522,-74.6386,67.95,80,57,2.73,PE,1610342482
441,Rapid Valley,44.0625,-103.1463,32.0,63,1,11.5,US,1610342483
442,Buraidah,26.326,43.975,48.2,100,5,2.3,SA,1610342483
443,Santa Cruz de la Sierra,-17.8,-63.1667,78.8,83,20,11.5,BO,1610342215
444,Ardeşen,41.1911,40.9875,51.8,93,75,3.44,TR,1610342485
447,Coquimbo,-29.9533,-71.3436,59.0,88,0,3.44,CL,1610342486
452,Aracaju,-10.9111,-37.0717,80.6,78,40,11.5,BR,1610342363
454,Kodinsk,58.6881,99.1844,-12.06,87,100,2.46,RU,1610342490
457,Tual,-5.6667,132.75,84.47,74,49,10.07,ID,1610342491
465,Kirovskaya,46.9748,40.0402,26.01,100,90,6.71,RU,1610342495
466,Ribeira Grande,38.5167,-28.7,63.01,89,94,6.85,PT,1610342496
474,Vao,-22.6667,167.4833,77.7,90,100,14.56,NC,1610342501
475,Kultuk,51.7208,103.6956,17.89,83,98,9.13,RU,1610342502
477,Udimskiy,61.1417,45.9144,-11.63,90,69,6.98,RU,1610342503
479,Rome,43.2128,-75.4557,28.4,74,90,3.44,US,1610342504
480,Palmas Bellas,9.2319,-80.0867,79.0,90,100,8.01,PA,1610342504
482,Vila Franca do Campo,37.7167,-25.4333,55.4,94,75,12.66,PT,1610342505
484,Cidreira,-30.1811,-50.2056,76.5,83,14,22.7,BR,1610342507
485,Luba,3.4568,8.5547,77.0,94,40,4.61,GQ,1610342507
486,Moyobamba,-6.05,-76.9667,64.76,92,36,0.25,PE,1610342508
490,Matara,5.9485,80.5353,85.55,63,95,1.61,LK,1610342510
496,Abonnema,4.7084,6.7931,73.4,100,40,2.42,NG,1610342513
499,Helena,46.5927,-112.0361,19.99,79,1,3.36,US,1610342515
501,Aleksandrovsk-Sakhalinskiy,50.8975,142.1561,-5.3,84,52,2.53,RU,1610342516
505,Fasa,28.9383,53.6482,37.4,30,0,4.07,IR,1610342518
513,Port Lincoln,-34.7333,135.8667,70.83,68,77,21.99,AU,1610342523
515,Saint-François,46.4154,3.9054,21.99,93,2,3.36,FR,1610342524
517,Homer,59.6425,-151.5483,37.99,93,75,13.8,US,1610342525
519,Kalmunai,7.4167,81.8167,77.83,90,100,4.16,LK,1610342527
520,Klaksvík,62.2266,-6.589,30.2,74,75,19.57,FO,1610342528
523,Aykhal,66.0,111.5,-35.68,80,15,2.21,RU,1610342529
524,Pokhara,28.2333,83.9833,71.96,22,85,5.61,NP,1610342530
528,‘Ewa Beach,21.3156,-158.0072,75.2,68,1,3.44,US,1610342532
531,Alta Floresta,-9.8756,-56.0861,71.53,94,98,2.95,BR,1610342533
532,Troitskoye,52.9821,84.6757,18.28,95,100,15.43,RU,1610342534
533,Wawa,9.9022,4.4192,70.27,29,19,0.58,NG,1610342534
535,Touros,-5.1989,-35.4608,77.0,88,75,4.61,BR,1610342535
537,Aripuanã,-9.1667,-60.6333,73.63,91,73,2.21,BR,1610342536
538,Konëvo,62.1215,39.3192,-9.44,90,9,4.68,RU,1610342537
546,Christchurch,-43.5333,172.6333,60.01,67,90,14.97,NZ,1610342295
548,Longyearbyen,78.2186,15.6401,26.6,68,20,11.5,SJ,1610342543
549,Forrest City,35.0081,-90.7898,32.0,80,90,6.91,US,1610342544
554,Sandakan,5.8402,118.1179,75.2,100,40,4.61,MY,1610342546
555,Toora-Khem,52.4675,96.11,5.02,90,100,2.95,RU,1610342547
559,Luganville,-15.5333,167.1667,84.88,73,87,4.81,VU,1610342549
562,Makakilo City,21.3469,-158.0858,75.2,68,1,3.44,US,1610342551
563,Rosetta,31.4044,30.4164,55.4,100,67,7.65,EG,1610342551
565,Vila Praia de Âncora,41.811,-8.8526,42.01,69,0,1.14,PT,1610342553
572,Sol'vychegodsk,61.3305,46.9156,-10.32,88,23,6.49,RU,1610342556
573,College,64.8569,-147.8028,14.0,78,75,4.61,US,1610342557
574,Saint-Pierre,-21.3393,55.4781,82.4,89,75,16.11,RE,1610342558
576,Nikologory,56.1413,41.9922,8.87,96,100,4.99,RU,1610342559
579,Maniitsoq,65.4167,-52.9,27.01,98,100,5.99,GL,1610342560
581,Rocha,-34.4833,-54.3333,70.75,95,19,10.49,UY,1610342562
584,Khartoum,15.5518,32.5324,71.01,32,0,10.36,SD,1610342565
585,Batagay-Alyta,67.8006,130.4114,-33.36,79,57,2.3,RU,1610342566
587,Flinders,-34.5833,150.8552,82.99,60,50,4.0,AU,1610342567
588,Nokaneng,-19.6667,22.2667,73.62,79,100,3.69,BW,1610342567
589,Adrar,20.5022,-10.0711,52.99,44,93,12.66,MR,1610342568
591,Santa Cruz,30.4202,-9.5982,48.2,100,0,10.36,MA,1610342569
598,Poum,-20.2333,164.0167,84.92,74,84,6.85,NC,1610342573
599,Westport,41.1415,-73.3579,28.4,59,1,4.21,US,1610342308
601,Cuenca,-2.8833,-78.9833,55.4,100,65,2.39,EC,1610342576
602,Salalah,17.0151,54.0924,69.8,26,0,10.36,OM,1610342576
604,Chulym,55.0997,80.9572,7.11,95,100,8.52,RU,1610342577
608,Yeppoon,-23.1333,150.7333,80.6,65,75,18.41,AU,1610342581
610,Areia Branca,-4.9561,-37.1369,78.94,79,90,11.18,BR,1610342582
612,Luau,-10.7073,22.2247,64.6,99,100,3.67,AO,1610342583
613,Faanui,-16.4833,-151.75,81.46,68,100,15.3,PF,1610342584
614,Forestville,38.8451,-76.875,35.6,80,1,1.43,US,1610342584
617,Paamiut,61.994,-49.6678,32.85,97,100,7.67,GL,1610342586
624,Balvi,57.1313,27.2658,17.58,97,100,6.33,LV,1610342590
628,Mindelo,16.8901,-24.9804,68.0,64,20,17.27,CV,1610342592
631,Gweta,-20.1833,25.2333,75.2,69,96,14.36,BW,1610342594
635,Graham,47.0529,-122.2943,44.01,100,90,2.62,US,1610342596
636,Amapá,1.0,-52.0,70.88,98,94,2.04,BR,1610342597
645,Katsuura,35.1333,140.3,44.01,32,100,4.0,JP,1610342602
646,Senanga,-16.1167,23.2667,69.15,92,100,3.74,ZM,1610342602
650,Te Anau,-45.4167,167.7167,66.81,43,79,3.13,NZ,1610342604
651,Oranjemund,-28.55,16.4333,61.52,87,4,6.38,NA,1610342605
652,Gizo Government Station,-8.103,156.8419,81.97,76,100,6.04,SB,1610342605
653,Araxá,-19.5933,-46.9406,68.0,100,100,3.44,BR,1610342606
661,Petatlán,17.5167,-101.2667,71.22,74,92,3.24,MX,1610342610
662,Show Low,34.2542,-110.0298,24.01,63,1,3.56,US,1610342611
664,Taksimo,56.3444,114.8794,-5.13,86,100,1.95,RU,1610342612
668,Gulfport,30.3674,-89.0928,39.2,81,90,9.22,US,1610342614
669,Adré,13.4667,22.2,58.01,32,0,14.76,TD,1610342614
670,Florence,43.7667,11.25,39.2,52,0,4.61,IT,1610342615
674,Aginskoye,51.1,114.53,8.24,85,64,8.93,RU,1610342617
682,Mwinilunga,-11.7358,24.4293,62.51,97,100,5.06,ZM,1610342621
683,Port Blair,11.6667,92.75,82.76,71,55,14.03,IN,1610342622
684,Nhulunbuy,-12.2333,136.7667,86.0,66,75,9.22,AU,1610342622
685,Roald,62.5833,6.1333,30.2,93,75,11.5,NO,1610342623
689,Shubarkuduk,49.1447,56.4872,22.66,97,100,6.2,KZ,1610342625
690,Severnoye,56.3491,78.3619,-8.36,91,100,9.91,RU,1610342625
695,Sisimiut,66.9395,-53.6735,27.52,94,100,20.74,GL,1610342628
705,Berlevåg,70.8578,29.0864,14.0,67,0,25.32,NO,1610342634
706,Progreso,21.2833,-89.6667,66.99,82,1,5.75,MX,1610342634
709,Guerrero Negro,27.9769,-114.0611,59.67,46,0,2.68,MX,1610342636
715,Cayenne,4.9333,-52.3333,78.8,94,20,10.36,GF,1610342639
716,Río Cuarto,-33.1307,-64.3499,73.0,93,51,8.01,AR,1610342639
718,Paraíso,9.8383,-83.8656,69.8,73,0,6.91,CR,1610342640
728,Nikolayevsk-on-Amur,53.1406,140.73,-9.9,84,70,5.35,RU,1610342646
730,Nevel'sk,46.6733,141.8633,10.4,79,40,4.47,RU,1610342647
731,Orange Walk District,17.8333,-88.8333,68.0,80,16,1.97,BZ,1610342648
732,Pisco,-13.7,-76.2167,68.0,88,0,8.05,PE,1610342648
733,La Palma,33.8464,-118.0467,55.4,47,1,3.44,US,1610342649
735,General Roca,-39.0333,-67.5833,64.4,59,0,2.3,AR,1610342651
736,Bealanana,-14.55,48.7333,73.04,79,68,1.21,MG,1610342651
745,Waingapu,-9.6567,120.2641,87.69,64,89,8.14,ID,1610342656
749,Colinas,-6.0258,-44.2492,72.73,96,100,2.39,BR,1610342658
753,Pandan,14.0453,124.1694,77.18,83,100,19.95,PH,1610342661
756,Lagoa,39.05,-27.9833,61.39,91,53,8.5,PT,1610342662
758,Teknāf,20.8624,92.3058,81.43,45,65,3.78,BD,1610342663
759,Ngunguru,-35.6167,174.5,71.1,62,9,5.12,NZ,1610342664
760,Gunnedah,-30.9833,150.25,84.2,28,0,8.05,AU,1610342664
762,Malangali,-8.5667,34.85,62.38,93,100,4.38,TZ,1610342666
768,Erzin,36.9559,36.2,52.0,58,1,8.99,TR,1610342669
770,Lhokseumawe,5.1801,97.1507,81.77,77,94,5.14,ID,1610342671
771,Rodrigues Alves,-7.738,-72.6509,72.75,95,81,1.7,BR,1610342671
772,Saldanha,-33.0117,17.9442,60.8,77,0,6.91,ZA,1610342672
773,Sakaiminato,35.55,133.2333,37.4,81,75,6.91,JP,1610342673
775,Labuhan,-6.8844,112.2051,84.33,75,98,8.66,ID,1610342674
780,Belmonte,-15.8631,-38.8828,77.0,88,75,3.44,BR,1610342677
781,Walvis Bay,-22.9575,14.5053,69.01,82,81,6.91,NA,1610342677
784,Antofagasta,-23.65,-70.4,64.4,72,0,3.44,CL,1610342535
785,Aksu,41.1231,80.2644,19.24,69,0,0.92,CN,1610342679
786,Ayan,56.45,138.1667,-14.53,73,23,8.34,RU,1610342680
787,Naryan-Mar,67.6713,53.087,-9.08,89,13,5.35,RU,1610342680
793,Flagstaff,35.1981,-111.6513,26.01,62,1,3.09,US,1610342560
795,Mandan,46.8267,-100.8896,30.2,100,1,13.8,US,1610342685
796,Miguelópolis,-20.1794,-48.0319,72.25,92,100,2.06,BR,1610342686
800,Sun Valley,39.5963,-119.776,33.8,60,40,2.01,US,1610342688
801,Necochea,-38.5473,-58.7368,62.01,92,100,8.39,AR,1610342688
806,Ukiah,39.1502,-123.2078,46.4,87,75,1.14,US,1610342554
813,Tahoua,14.8888,5.2692,66.2,19,0,2.3,NE,1610342695
820,Prince Rupert,54.3161,-130.3201,44.6,87,90,23.02,CA,1610342699
821,Sari,36.5633,53.0601,37.4,75,0,6.91,IR,1610342700
823,Bursa,40.1667,29.0833,46.4,100,90,1.14,TR,1610342701
831,Mil'kovo,54.7167,158.6167,5.29,86,84,0.92,RU,1610342705
833,Forbes,-33.3833,148.0167,91.99,23,3,1.99,AU,1610342707
834,Pudozh,61.8099,36.5345,-3.32,91,75,5.73,RU,1610342708
839,Kavaratti,10.5669,72.642,82.17,72,31,2.24,IN,1610342710
841,Ulladulla,-35.35,150.4667,87.01,51,50,12.66,AU,1610342545
843,Murindó,6.9848,-76.7544,72.77,95,100,1.68,CO,1610342712
844,Noumea,-22.2763,166.4572,84.2,70,90,9.22,NC,1610342713
847,Tautira,-17.7333,-149.15,84.0,65,75,5.75,PF,1610342715
852,Tānsen,27.8673,83.5467,64.2,34,24,4.14,NP,1610342718
857,Nome,64.5011,-165.4064,14.0,73,40,21.85,US,1610342721
860,Barreirinhas,-2.7469,-42.8264,77.5,84,81,7.25,BR,1610342723
861,Fagernes,60.9858,9.2324,3.99,86,98,1.01,NO,1610342723
862,Safaga,26.7292,33.9365,62.6,51,0,12.66,EG,1610342724
863,Lahaina,20.8783,-156.6825,75.2,64,40,13.8,US,1610342672
867,Dingle,10.9995,122.6711,76.57,88,100,12.59,PH,1610342727
870,Yuza,39.0,139.9167,32.0,86,75,8.05,JP,1610342729
871,Kachīry,53.0675,76.1036,18.23,97,100,13.8,KZ,1610342729
873,Balyaga,51.1507,108.921,1.67,85,99,4.07,RU,1610342731
876,Levice,48.2156,18.6071,27.0,95,1,1.01,SK,1610342732
877,Newport,51.5877,-2.9984,45.0,82,78,1.99,GB,1610342733
879,Pilar,-9.5972,-35.9567,75.2,88,40,4.61,BR,1610342734
880,Sarkand,45.41,79.9186,37.36,70,0,3.04,KZ,1610342735
883,Lata,40.1629,-8.3327,42.01,93,0,1.14,PT,1610342736
884,Linguère,15.3953,-15.1193,65.86,30,39,14.29,SN,1610342737
889,Avera,33.194,-82.5271,35.6,71,1,5.75,US,1610342739
891,Camaçari,-12.6975,-38.3242,82.4,78,20,9.22,BR,1610342512
896,Palauig,15.435,119.9045,80.4,57,100,5.44,PH,1610342743
899,San Cristobal,7.7669,-72.225,64.47,90,55,2.95,VE,1610342745
900,Bambanglipuro,-7.95,110.2833,86.7,64,59,8.14,ID,1610342745
903,Janakpur Dham,26.7183,85.9065,71.29,49,61,4.38,NP,1610342747
904,Bemidji,47.4736,-94.8803,30.2,80,90,12.66,US,1610342748
905,Teluknaga,-6.0989,106.6381,93.0,70,40,10.36,ID,1610342748
911,Tolaga Bay,-38.3667,178.3,67.8,68,3,4.61,NZ,1610342753
913,Kropachëvo,55.0112,57.9896,7.7,96,100,3.33,RU,1610342754
914,Kilindoni,-7.9139,39.6668,81.95,80,100,21.59,TZ,1610342754
918,Sur,22.5667,59.5289,69.13,39,12,12.44,OM,1610342757
926,San Patricio,28.017,-97.5169,37.99,93,40,18.41,US,1610342763
927,Morón,-34.6534,-58.6198,77.0,88,90,31.07,AR,1610342763
928,Saint-Augustin,51.226,-58.6502,13.89,83,0,12.73,CA,1610342764
929,Isangel,-19.55,169.2667,84.2,79,75,6.91,VU,1610342764
943,Cernat,45.95,26.0333,28.0,91,100,5.99,RO,1610342772
944,Boa Vista,2.8197,-60.6733,75.2,88,75,1.14,BR,1610342709
946,Carutapera,-1.195,-46.02,76.96,88,14,7.18,BR,1610342773
947,Baruun-Urt,46.6806,113.2792,-4.23,86,44,11.92,MN,1610342774
951,Port-Gentil,-0.7193,8.7815,77.0,100,40,2.3,GA,1610342776
952,Qaqortoq,60.7167,-46.0333,42.8,36,75,11.5,GL,1610342776
955,Raipur,21.2333,81.6333,80.74,45,0,6.8,IN,1610342778
956,Inírida,3.8653,-67.9239,73.11,97,93,1.7,CO,1610342779
958,Haines Junction,60.7522,-137.5108,14.0,92,100,1.14,CA,1610342780
959,Najrān,17.4924,44.1277,51.8,46,40,1.79,SA,1610342780
963,Zavallya,48.2135,30.0156,28.78,92,100,0.67,UA,1610342782
967,Fayaoué,-20.65,166.5333,83.97,72,100,2.28,NC,1610342784
968,Wamba,8.9333,8.6,68.11,25,0,1.9,NG,1610342785
977,Vestmanna,62.1564,-7.1664,30.2,74,75,12.66,FO,1610342790
980,Tres Arroyos,-38.3739,-60.2798,64.33,88,100,4.36,AR,1610342791
982,Xicoténcatl,23.0167,-98.8833,57.0,72,79,28.99,MX,1610342792
983,Kargasok,59.0556,80.8572,-27.13,85,7,7.76,RU,1610342793
988,Swan Hill,-35.3378,143.5544,98.2,16,100,15.75,AU,1610342795
989,Yongchang,30.0381,119.7317,43.0,26,0,7.0,CN,1610342796
992,Coyhaique,-45.5752,-72.0662,37.99,83,60,7.25,CL,1610342798
996,Segezha,63.7415,34.3222,3.61,95,99,6.69,RU,1610342802
1001,Holme,56.1138,10.1725,37.4,100,90,8.05,DK,1610342805
1002,Mbanza-Ngungu,-5.25,14.8667,65.05,100,98,6.51,CD,1610342805
1010,Lebu,-37.6167,-73.65,55.02,85,90,5.59,CL,1610342810
1013,Añisoc,1.8658,10.7689,69.98,94,76,0.78,GQ,1610342812
1021,Punta Arenas,-53.15,-70.9167,39.2,70,0,14.97,CL,1610342528
1023,Warrnambool,-38.3833,142.4833,93.0,28,100,5.01,AU,1610342818
1024,Turan,16.0678,108.2208,66.2,68,75,12.66,VN,1610342775
1033,Teruel,40.6667,-0.6667,26.6,100,90,4.61,ES,1610342695
1034,Busselton,-33.65,115.3333,81.0,38,0,4.16,AU,1610342825
1035,Rikitea,-23.1203,-134.9692,78.33,79,50,18.63,PF,1610342826
1038,Sørland,67.667,12.6934,32.0,64,75,8.05,NO,1610342827
1041,Chapais,49.7834,-74.8492,14.0,92,90,5.75,CA,1610342829
1042,Hobyo,5.3505,48.5268,76.24,66,75,22.77,SO,1610342829
1048,Jamestown,42.097,-79.2353,24.01,93,1,4.61,US,1610342832
1049,Tiarei,-17.5333,-149.3333,84.0,65,75,5.75,PF,1610342833
1052,Seoul,37.5683,126.9778,26.6,50,0,2.3,KR,1610342819
1054,Lorengau,-2.0226,147.2712,84.65,67,18,3.6,PG,1610342836
1055,Llanes,43.4198,-4.7549,48.0,58,97,3.38,ES,1610342837
1056,Longyan,25.1072,117.0225,54.0,33,97,1.99,CN,1610342837
1061,Ushuaia,-54.8,-68.3,41.0,65,75,23.02,AR,1610342840
1062,Kieta,-6.2167,155.6333,83.57,73,100,4.65,PG,1610342841
1064,Puntarenas,9.9763,-84.8384,69.8,73,0,6.91,CR,1610342842
1065,Hay River,60.8156,-115.7999,15.8,86,0,5.75,CA,1610342843
1067,Khatanga,71.9667,102.5,-7.37,91,100,13.18,RU,1610342844
1068,Sept-Îles,50.2001,-66.3821,15.8,67,47,5.75,CA,1610342821
1072,Lukovetskiy,64.2956,41.9211,-11.2,84,20,6.71,RU,1610342846
1074,Waipawa,-41.4122,175.5153,69.01,72,59,10.36,NZ,1610342847
1076,Pimentel,-6.8367,-79.9342,69.17,85,85,11.81,PE,1610342849
1078,Arrondissement du Havre,49.5833,0.3333,39.2,93,90,6.91,FR,1610342852
1079,Umeå,63.8284,20.2597,23.0,93,40,5.75,SE,1610342853
1083,Mackenzie,55.2999,-123.1698,32.0,93,90,4.61,CA,1610342855
1084,Ocampo,21.65,-101.5,49.03,49,0,5.66,MX,1610342855
1086,Dumas,35.8656,-101.9732,28.0,93,1,6.91,US,1610342856
1087,Tarauacá,-8.1614,-70.7656,73.53,92,100,1.86,BR,1610342857
1090,Hilo,19.7297,-155.09,75.2,73,90,5.75,US,1610342624
1091,Inta,66.0317,60.1659,-11.94,76,0,1.74,RU,1610342859
1094,Puerto Ayora,-0.7393,-90.3518,72.0,92,1,5.08,EC,1610342861
1099,Yaan,7.3833,8.5667,71.38,81,3,2.8,NG,1610342863
1100,Sola,-13.8833,167.55,84.63,69,59,7.85,VU,1610342864
1102,Mataura,-46.1927,168.8643,57.99,68,62,10.0,NZ,1610342865
1103,Ternate,0.8,127.4,84.81,71,99,5.48,ID,1610342866
1104,Kalabo,-14.97,22.6814,65.82,94,100,8.72,ZM,1610342866
1108,Guadalupe y Calvo,26.1,-106.9667,33.37,85,0,4.16,MX,1610342869
1110,Saint Paul Harbor,57.79,-152.4072,35.6,87,90,12.66,US,1610342637
1115,Mucurapo,10.6667,-61.5333,75.99,88,20,3.44,TT,1610342872
1117,Carnarvon,-24.8667,113.6333,86.0,58,0,19.57,AU,1610342873
1120,Hobart,-42.8794,147.3294,97.0,17,0,18.41,AU,1610342875
1124,Kapaa,22.0752,-159.319,75.2,83,1,10.36,US,1610342877
1125,Albany,42.6001,-73.9662,25.0,92,94,2.17,US,1610342870
1128,Vaini,-21.2,-175.2,82.4,78,75,6.91,TO,1610342879
1130,Bambous Virieux,-20.3428,57.7575,82.99,94,40,16.11,MU,1610342880
1131,Acajutla,13.5928,-89.8275,76.59,67,44,7.23,SV,1610342881
1133,Kendari,-3.945,122.4989,88.16,63,93,5.53,ID,1610342882
1134,Saint George,37.1041,-113.5841,35.01,40,1,4.61,US,1610342882
1135,Bethel,41.3712,-73.414,26.01,86,1,3.24,US,1610342883
1136,Ancud,-41.8697,-73.8203,44.01,81,75,5.75,CL,1610342884
1137,Namatanai,-3.6667,152.4333,85.93,65,93,3.42,PG,1610342884
1140,Bathsheba,13.2167,-59.5167,77.0,78,40,20.71,BB,1610342886
1142,Atuona,-9.8,-139.0333,77.77,80,66,13.82,PF,1610342887
1143,Bluff,-46.6,168.3333,57.99,68,47,10.0,NZ,1610342887
1145,Calama,-22.4667,-68.9333,51.8,50,0,8.05,CL,1610342835
1146,George,-33.963,22.4617,62.6,88,20,6.91,ZA,1610342747
1152,Souillac,-20.5167,57.5167,82.4,94,40,16.11,MU,1610342892
1153,New Norfolk,-42.7826,147.0587,97.0,14,88,5.01,AU,1610342893
1154,Pevek,69.7008,170.3133,-29.34,86,96,3.65,RU,1610342894
1155,Yellowknife,62.456,-114.3525,6.8,85,75,4.61,CA,1610342836
1156,Albany,42.6001,-73.9662,25.0,92,99,1.9,US,1610342870
1157,Rikitea,-23.1203,-134.9692,78.24,79,35,18.03,PF,1610342896
1158,Faanui,-16.4833,-151.75,81.46,68,100,15.3,PF,1610342896
1159,Sitka,57.0531,-135.33,42.8,81,90,16.11,US,1610342897
1160,Codrington,-38.2667,141.9667,93.78,21,100,16.62,AU,1610342898
1161,Inhambane,-23.865,35.3833,82.4,83,40,10.92,MZ,1610342898
1162,Hobart,-42.8794,147.3294,97.0,17,0,18.41,AU,1610342862
1163,Wilmington,34.2257,-77.9447,33.8,86,1,3.06,US,1610342900
1164,Ushuaia,-54.8,-68.3,41.0,65,75,23.02,AR,1610342900
1166,Bethel,41.3712,-73.414,26.01,86,1,3.33,US,1610342901
1167,Hermanus,-34.4187,19.2345,68.0,77,31,8.01,ZA,1610342902
1168,Qaanaaq,77.484,-69.3632,0.01,75,0,5.91,GL,1610342902
1170,Bonfim,3.0833,-59.95,75.11,82,46,8.41,BR,1610342903
1171,Ugoofaaru,5.6667,73.0,76.68,78,100,8.37,MV,1610342904
1172,Sobolevo,54.4299,31.8996,6.12,95,58,2.86,RU,1610342905
1173,Palmas,-10.2128,-48.3603,71.6,100,40,3.44,BR,1610342905
1174,Egvekinot,66.3167,-179.1667,-18.81,85,22,11.56,RU,1610342906
1176,Punta Arenas,-53.15,-70.9167,39.2,70,0,14.97,CL,1610342678
1177,Busselton,-33.65,115.3333,81.0,38,0,1.01,AU,1610342908
1178,Leningradskiy,69.3833,178.4167,-22.29,83,96,10.49,RU,1610342908
1179,Vaini,-21.2,-175.2,82.4,78,75,6.91,TO,1610342909
1181,Kapaa,22.0752,-159.319,75.2,83,1,10.36,US,1610342910
1182,Cayenne,4.9333,-52.3333,78.8,94,20,10.36,GF,1610342911
1183,George Town,5.4112,100.3354,87.8,55,20,4.61,MY,1610342630
1184,Necochea,-38.5473,-58.7368,62.01,92,100,4.36,AR,1610342912
1185,Ilo,-17.6394,-71.3375,69.51,77,84,5.06,PE,1610342913
1187,Mahébourg,-20.4081,57.7,82.4,94,40,16.11,MU,1610342914
1188,Tuktoyaktuk,69.4541,-133.0374,8.6,92,75,9.22,CA,1610342915
1189,Kiama,-34.6833,150.8667,82.99,62,58,11.99,AU,1610342915
1192,Saint Paul Harbor,57.79,-152.4072,35.6,87,90,12.66,US,1610342917
1193,Saldanha,-33.0117,17.9442,60.8,77,0,6.91,ZA,1610342918
1195,Broken Hill,-31.95,141.4333,96.8,13,24,8.05,AU,1610342919
1199,Vilhena,-12.7406,-60.1458,70.0,87,56,2.73,BR,1610342835
1200,Port Alfred,-33.5906,26.891,69.01,84,96,3.0,ZA,1610342921
1202,Saskatoon,52.1168,-106.6345,10.4,92,75,6.91,CA,1610342761
1205,Samarai,-10.6167,150.6667,87.22,70,62,10.38,PG,1610342924
1206,Bria,6.5423,21.9863,59.36,32,4,5.64,CF,1610342924
1207,Khatanga,71.9667,102.5,-7.37,91,100,13.18,RU,1610342925
1208,Al Bardīyah,31.7561,25.0865,65.46,51,20,9.04,LY,1610342926
1209,Fortuna,40.5982,-124.1573,51.01,100,90,3.65,US,1610342927
1210,Zyryanovsk,49.7386,84.2719,6.37,92,97,0.72,KZ,1610342927
1211,Ribeira Grande,38.5167,-28.7,63.01,89,94,6.85,PT,1610342928
1214,Geraldton,-28.7667,114.6,87.8,37,0,25.32,AU,1610342929
1216,Longyearbyen,78.2186,15.6401,26.6,68,20,11.5,SJ,1610342931
1217,Port Elizabeth,-33.918,25.5701,69.8,73,75,10.36,ZA,1610342805
1218,Arlit,18.7369,7.3853,68.18,23,0,7.76,NE,1610342932
1219,Sabang,5.8933,95.3214,81.66,77,95,14.5,ID,1610342933
1221,Paso de Carrasco,-34.8603,-56.0522,77.0,78,75,12.66,UY,1610342934
1222,Hithadhoo,-0.6,73.0833,81.05,77,100,14.79,MV,1610342935
1224,Coruripe,-10.1256,-36.1756,76.5,82,100,10.56,BR,1610342936
1225,Laï,9.3952,16.2989,63.61,28,100,3.94,TD,1610342937
1226,Tarbagatay,51.4803,107.3602,5.0,61,40,6.71,RU,1610342938
1228,Te Anau,-45.4167,167.7167,66.81,43,79,3.13,NZ,1610342939
1229,Bredasdorp,-34.5322,20.0403,64.4,82,71,8.05,ZA,1610342939
1230,Pokaran,26.9167,71.9167,65.55,26,0,6.67,IN,1610342940
1231,Barrow,71.2906,-156.7887,3.2,85,90,13.8,US,1610342940
1232,Port Hawkesbury,45.6169,-61.3485,27.0,80,90,9.22,CA,1610342941
1233,Provideniya,64.3833,-173.3,-0.4,71,75,15.66,RU,1610342941
1234,Alugan,12.2188,125.4808,79.9,86,98,16.35,PH,1610342942
1235,Zima,53.9202,102.0442,12.02,92,100,10.33,RU,1610342943
1236,Agua Verde,22.9,-106.05,66.99,100,1,7.74,MX,1610342943
1237,Cam Ranh,11.9214,109.1591,82.4,61,40,24.16,VN,1610342944
1239,Satipo,-11.2522,-74.6386,67.95,80,57,2.73,PE,1610342945
1241,Carnarvon,-24.8667,113.6333,86.0,58,0,19.57,AU,1610342946
1243,Taoudenni,22.6783,-3.9836,55.85,41,85,10.31,ML,1610342947
1247,San Cristobal,7.7669,-72.225,64.65,91,54,2.95,VE,1610342949
1249,Jamestown,42.097,-79.2353,24.01,93,1,4.61,US,1610342745
1250,Clyde River,70.4692,-68.5914,5.0,85,90,12.66,CA,1610342951
1252,Severo-Kuril'sk,50.6789,156.125,20.03,88,98,18.1,RU,1610342952
1253,Kenai,60.5544,-151.2583,33.01,80,20,13.8,US,1610342952
1254,Camaçari,-12.6975,-38.3242,82.4,78,20,9.22,BR,1610342953
1255,Tiksi,71.6872,128.8694,-25.8,84,100,14.9,RU,1610342953
1257,Upernavik,72.7868,-56.1549,12.13,87,100,12.26,GL,1610342954
1258,Lagoa,39.05,-27.9833,61.43,93,60,9.35,PT,1610342955
1260,Kruisfontein,-34.0033,24.7314,69.01,74,96,4.0,ZA,1610342956
1261,Turaif,31.6725,38.6637,39.2,93,0,4.61,SA,1610342956
1263,Kintampo,8.0563,-1.7306,72.75,80,0,2.91,GH,1610342958
1264,Vetluga,57.8557,45.781,-6.29,91,57,5.75,RU,1610342959
1266,Bluff,-46.6,168.3333,57.99,68,47,10.0,NZ,1610342960
1267,Teguise,29.0605,-13.564,57.2,67,0,9.22,ES,1610342961
1268,Tasiilaq,65.6145,-37.6368,21.2,53,90,2.3,GL,1610342961
1270,Yulara,-25.2406,130.9889,100.4,9,26,17.27,AU,1610342962
1274,Christchurch,-43.5333,172.6333,60.01,67,90,14.97,NZ,1610342934
1277,Marsá Maţrūḩ,31.3525,27.2453,53.6,76,0,5.75,EG,1610342966
1280,Puerto Carreño,6.189,-67.4859,75.67,83,93,7.96,CO,1610342968
1283,Saskylakh,71.9167,114.0833,-8.61,87,100,15.41,RU,1610342970
1284,Mount Gambier,-37.8333,140.7667,95.0,14,100,27.63,AU,1610342971
1285,Cefalù,38.0386,14.0229,55.0,81,89,1.01,IT,1610342971
1287,Lambaréné,-0.7001,10.2406,74.07,95,77,2.39,GA,1610342973
1288,Tarakan,3.3,117.6333,82.4,83,40,8.05,ID,1610342705
