,City,Lat,Lng,Max Temp,Humidity,Cloudiness,Wind Speed,Country,Date
0,Port Alfred,-33.5906,26.891,66.0,86,95,17.94,ZA,1610336971
1,Mataura,-46.1927,168.8643,57.99,70,77,14.0,NZ,1610336971
2,Busselton,-33.65,115.3333,75.99,44,1,1.01,AU,1610336969
4,Upernavik,72.7868,-56.1549,11.79,86,99,13.76,GL,1610336973
5,Bela Vista,-22.1089,-56.5211,79.48,72,78,5.84,BR,1610336973
7,Tasiilaq,65.6145,-37.6368,17.6,67,90,4.61,GL,1610336975
9,Curup,-3.4667,102.5333,80.96,67,100,1.34,ID,1610336976
10,Saint George,37.1041,-113.5841,37.4,35,1,3.96,US,1610336977
11,Albany,42.6001,-73.9662,23.0,92,75,2.13,US,1610336978
12,Husavik,66.0449,-17.3389,19.4,79,90,4.61,IS,1610336978
13,Castro,-24.7911,-50.0119,65.82,96,87,8.79,BR,1610336976
14,Nkongsamba,4.9547,9.9404,66.49,97,17,0.56,CM,1610336979
15,Río Gallegos,-51.6226,-69.2181,44.6,87,90,18.41,AR,1610336962
16,Hilo,19.7297,-155.09,77.0,65,90,6.91,US,1610336836
17,Vaini,-21.2,-175.2,82.4,78,75,6.91,TO,1610336981
18,Killybegs,54.6333,-8.45,45.0,93,100,8.99,IE,1610336982
21,Kudahuvadhoo,2.6708,72.8944,80.87,73,59,12.46,MV,1610336983
22,Hasaki,35.7333,140.8333,41.0,48,75,6.91,JP,1610336983
23,Qaanaaq,77.484,-69.3632,-0.47,74,0,5.35,GL,1610336984
24,Punta Arenas,-53.15,-70.9167,42.8,70,40,9.22,CL,1610336985
26,Esperance,-33.8667,121.9,69.8,46,75,10.36,AU,1610336986
28,Rikitea,-23.1203,-134.9692,78.28,79,42,17.83,PF,1610336987
30,Grand Gaube,-20.0064,57.6608,81.0,85,2,5.99,MU,1610336989
31,Taman',45.2117,36.7161,32.0,86,100,11.18,RU,1610336989
32,Mar del Plata,-38.0023,-57.5575,66.2,88,90,10.36,AR,1610336950
33,Cape Town,-33.9258,18.4232,64.4,68,0,10.36,ZA,1610336788
34,Cabo San Lucas,22.8909,-109.9124,64.4,72,1,8.05,MX,1610336991
35,Bluff,-46.6,168.3333,57.99,70,64,14.0,NZ,1610336993
37,Marabu,4.4148,114.0089,82.4,83,40,4.61,MY,1610336994
38,East London,-33.0153,27.9116,66.2,94,90,3.44,ZA,1610336995
40,Mahébourg,-20.4081,57.7,78.8,100,75,9.22,MU,1610336996
41,Yulara,-25.2406,130.9889,98.6,11,32,6.91,AU,1610336997
42,Coquimbo,-29.9533,-71.3436,59.0,82,0,4.61,CL,1610336998
43,Kavieng,-2.5744,150.7967,84.29,69,94,4.07,PG,1610336998
44,Dunedin,-45.8742,170.5036,56.3,65,75,4.9,NZ,1610336999
45,Carballo,43.213,-8.691,42.8,70,0,2.3,ES,1610336835
47,Foshan,23.0268,113.1315,48.0,61,90,11.18,CN,1610336965
48,Kununurra,-15.7667,128.7333,98.6,56,38,5.75,AU,1610336792
49,Kapaa,22.0752,-159.319,77.0,78,1,11.5,US,1610336970
52,Saint Paul Harbor,57.79,-152.4072,35.6,93,90,19.57,US,1610337005
53,Rawson,-43.3002,-65.1023,61.9,30,88,14.58,AR,1610337006
54,Abhā,18.2164,42.5053,46.4,49,0,4.43,SA,1610337006
56,Phalodi,27.1333,72.3667,61.03,31,0,4.47,IN,1610337007
57,Acapulco de Juárez,16.8634,-99.8901,78.8,78,90,5.75,MX,1610337008
58,Dingle,10.9995,122.6711,76.23,89,100,11.63,PH,1610337009
59,Bāfq,31.6128,55.4107,38.62,55,0,3.31,IR,1610337009
60,Ushuaia,-54.8,-68.3,42.8,70,75,21.85,AR,1610336992
63,Dikson,73.5069,80.5464,19.17,97,100,12.91,RU,1610337011
64,Atuona,-9.8,-139.0333,77.83,80,97,14.0,PF,1610336971
67,Makassar,-5.14,119.4221,84.2,74,20,2.3,ID,1610337014
68,Moree,-29.4667,149.85,84.2,34,75,12.66,AU,1610337015
74,Valparaíso,-33.0393,-71.6273,53.6,94,0,2.3,CL,1610337019
75,Kaitangata,-46.2817,169.8464,63.0,52,86,11.01,NZ,1610336999
76,Thompson,55.7435,-97.8558,6.8,85,1,4.61,CA,1610337020
78,Yellowknife,62.456,-114.3525,8.6,92,90,6.91,CA,1610337022
79,Saskylakh,71.9167,114.0833,-8.41,87,100,15.79,RU,1610337005
81,Lorengau,-2.0226,147.2712,84.81,68,19,2.75,PG,1610337023
83,Chui,-33.6971,-53.4616,73.4,88,16,13.04,UY,1610337024
85,Avarua,-21.2078,-159.775,84.2,74,91,10.36,CK,1610337025
87,Poum,-20.2333,164.0167,84.27,75,81,5.97,NC,1610337027
88,Provideniya,64.3833,-173.3,-0.4,71,75,17.9,RU,1610337009
89,Porto-Novo,6.4965,2.6036,80.6,94,40,9.22,BJ,1610337028
90,Kānkon,15.0167,74.0167,80.6,69,40,9.22,IN,1610337028
91,Chokurdakh,70.6333,147.9167,-33.81,84,0,7.85,RU,1610337029
92,Karpathos,35.507,27.2132,64.4,88,100,10.36,GR,1610337029
93,New Norfolk,-42.7826,147.0587,98.01,16,98,4.0,AU,1610337030
94,Bandarbeyla,9.4942,50.8122,72.05,70,53,21.27,SO,1610336804
99,Souillac,-20.5167,57.5167,78.8,100,75,9.22,MU,1610337033
101,Puerto Ayora,-0.7393,-90.3518,73.99,93,1,5.95,EC,1610337034
104,Yerbogachën,61.2767,108.0108,-19.12,87,100,6.42,RU,1610336870
106,Kiboga,0.9161,31.7742,64.42,77,74,2.04,UG,1610337037
107,Geraldton,-28.7667,114.6,87.8,35,0,21.85,AU,1610337037
108,Bambous Virieux,-20.3428,57.7575,81.0,100,75,9.22,MU,1610337038
109,Khatanga,71.9667,102.5,-7.4,91,100,14.07,RU,1610337038
110,Gillette,44.2911,-105.5022,26.6,68,1,3.44,US,1610336853
115,Vostok,46.4856,135.8833,-1.98,85,100,7.36,RU,1610337041
116,Hāgere Hiywet,8.9833,37.85,52.86,76,98,3.27,ET,1610337042
118,Bredasdorp,-34.5322,20.0403,57.2,88,84,2.3,ZA,1610337043
119,Miraflores,19.2167,-98.8083,59.0,55,40,9.22,MX,1610337043
123,Vieux-Habitants,16.0589,-61.7659,73.4,83,0,3.44,GP,1610337045
124,Dromolaxia,34.8761,33.586,55.99,87,0,6.91,CY,1610337046
127,Tuktoyaktuk,69.4541,-133.0374,6.8,92,75,4.61,CA,1610336971
129,Hermanus,-34.4187,19.2345,64.99,83,21,5.01,ZA,1610337049
131,Rosetta,31.4044,30.4164,57.2,100,84,8.84,EG,1610337050
137,Pozo Colorado,-23.4923,-58.7972,82.78,66,64,6.78,PY,1610337054
139,Ribeira Grande,38.5167,-28.7,62.42,92,90,9.13,PT,1610337055
141,La Ronge,55.1001,-105.2842,21.2,79,100,3.44,CA,1610336826
142,Arrecife,28.963,-13.5477,59.0,58,0,6.91,ES,1610337057
143,Monclova,26.9,-101.4167,43.25,69,98,12.41,MX,1610336884
144,Peterhead,57.5058,-1.7981,44.6,76,100,9.22,GB,1610337058
146,Tiksi,71.6872,128.8694,-24.2,84,100,15.12,RU,1610337059
147,Kieta,-6.2167,155.6333,84.36,72,100,4.7,PG,1610337060
148,Wai,17.9333,73.9,75.51,51,0,3.62,IN,1610337060
149,Klaksvík,62.2266,-6.589,30.2,80,75,14.97,FO,1610337061
150,Murmansk Oblast,68.0,34.0,-1.1,92,0,4.27,RU,1610337061
153,Carnarvon,-24.8667,113.6333,82.4,69,0,21.85,AU,1610337063
156,Pangkalanbuun,-2.6833,111.6167,84.74,75,100,3.71,ID,1610337065
157,Mayo,38.8876,-76.5119,30.2,93,1,3.69,US,1610337065
158,Butaritari,3.0707,172.7902,80.87,82,70,16.69,KI,1610336967
163,Hofn,64.2539,-15.2082,25.74,86,0,17.69,IS,1610337068
167,Tot'ma,59.9747,42.7642,-11.29,90,25,5.46,RU,1610337070
168,Oktyabr'skoye,43.0645,44.7417,33.8,100,100,2.24,RU,1610337071
170,Namatanai,-3.6667,152.4333,86.49,63,64,3.29,PG,1610337072
172,San Quintín,30.4833,-115.95,58.8,56,3,6.06,MX,1610336864
174,Broken Hill,-31.95,141.4333,93.2,16,25,10.36,AU,1610337023
179,Flinders,-34.5833,150.8552,82.99,60,37,5.99,AU,1610337078
180,Laguna,38.421,-121.4238,50.0,81,1,4.61,US,1610337078
181,Vawkavysk,53.1561,24.4513,28.4,86,90,6.71,BY,1610337079
182,Barrow,71.2906,-156.7887,5.0,78,90,9.22,US,1610337079
184,Malé,4.1748,73.5089,82.4,83,75,4.61,MV,1610337081
185,Imbituba,-28.24,-48.6703,78.8,83,75,3.44,BR,1610337082
187,Port Elizabeth,-33.918,25.5701,68.0,73,90,11.5,ZA,1610336992
188,Hobart,-42.8794,147.3294,98.01,18,0,13.8,AU,1610336965
189,Sept-Îles,50.2001,-66.3821,15.8,67,34,8.05,CA,1610337084
191,Taltal,-25.4,-70.4833,63.12,75,47,2.53,CL,1610337085
192,Matadi,-5.8167,13.45,70.86,89,100,2.17,CD,1610337072
193,Nha Trang,12.25,109.1833,80.6,65,40,24.16,VN,1610337086
195,Bengkulu,-3.8004,102.2655,85.06,63,100,4.47,ID,1610337087
196,Ponta do Sol,32.6667,-17.1,52.0,70,2,5.01,PT,1610336977
198,Visnes,59.3556,5.2242,33.8,93,90,4.61,NO,1610337089
200,Vilhena,-12.7406,-60.1458,71.58,89,91,2.44,BR,1610337090
201,Egvekinot,66.3167,-179.1667,-19.25,84,6,11.41,RU,1610337091
204,Jamestown,42.097,-79.2353,24.8,86,1,6.91,US,1610337016
206,Norman Wells,65.282,-126.8329,1.4,85,20,3.44,CA,1610337094
209,Praia,14.9215,-23.5087,69.8,60,75,20.71,CV,1610337095
210,Franklin,39.9667,-83.0166,30.0,80,75,3.44,US,1610337096
211,Nizhniy Kuranakh,58.8353,125.4869,-21.28,83,100,1.57,RU,1610337096
212,Harper,4.375,-7.7169,78.22,87,35,8.68,LR,1610337031
213,Ust-Maya,60.4167,134.5333,-38.49,80,98,0.76,RU,1610337098
214,Lagoa,39.05,-27.9833,61.29,91,42,9.95,PT,1610337098
215,Richards Bay,-28.783,32.0377,71.78,90,100,8.81,ZA,1610337099
217,Velyka Bahachka,49.7912,33.7226,27.19,92,96,5.55,UA,1610337100
218,Morón,-34.6534,-58.6198,84.0,68,98,1.99,AR,1610337101
219,Gijang,35.2442,129.2139,33.8,40,75,5.75,KR,1610337101
223,Tuatapere,-46.1333,167.6833,57.99,69,88,13.0,NZ,1610337104
224,Leningradskiy,69.3833,178.4167,-22.13,83,96,10.4,RU,1610337104
225,Saldanha,-33.0117,17.9442,57.2,82,0,6.91,ZA,1610337010
227,Tecpan,14.7623,-90.9947,62.01,82,75,11.5,GT,1610337106
229,Hithadhoo,-0.6,73.0833,80.83,77,100,14.74,MV,1610337006
240,Arraial do Cabo,-22.9661,-42.0278,76.46,90,52,17.29,BR,1610337069
241,Nemuro,43.3236,145.575,21.2,49,20,11.5,JP,1610336904
249,Kirakira,-10.4544,161.9205,86.72,66,100,4.79,SB,1610337117
251,Kavaratti,10.5669,72.642,82.08,72,29,3.09,IN,1610337118
253,Sennoy,52.1509,46.9631,13.62,96,82,3.87,RU,1610337119
254,Makkah al Mukarramah,21.4267,39.8261,70.12,39,0,4.99,SA,1610336996
255,Rio Grande,-32.035,-52.0986,77.0,87,0,1.01,BR,1610337120
256,Svolvær,68.2342,14.5683,27.0,66,0,5.99,NO,1610337121
257,Mahon,39.8885,4.2658,46.4,87,90,20.71,ES,1610337121
260,Southampton,50.904,-1.4043,41.0,88,58,3.0,GB,1610336975
261,Batticaloa,7.7102,81.6924,77.0,92,100,4.0,LK,1610337124
263,Batemans Bay,-35.7167,150.1833,89.01,32,39,1.01,AU,1610337125
264,Oddur,4.1213,43.8894,65.43,71,0,20.56,SO,1610337126
271,Mahon,39.8885,4.2658,46.4,87,90,20.71,ES,1610337112
272,Mount Gambier,-37.8333,140.7667,98.6,12,100,25.32,AU,1610337130
273,Santarém,-2.4431,-54.7083,73.4,100,0,3.67,BR,1610337130
277,Cidreira,-30.1811,-50.2056,76.64,81,1,22.91,BR,1610337133
278,Viedma,-40.8135,-62.9967,71.17,36,92,10.76,AR,1610337024
280,Kautokeino,69.0125,23.0412,-4.7,91,98,6.89,NO,1610337135
285,Hamilton,39.1834,-84.5333,30.2,74,1,1.95,US,1610337091
288,Esna,25.2934,32.554,59.0,58,0,4.61,EG,1610337029
293,Dahuk,36.8695,42.994,41.56,60,0,1.52,IQ,1610337142
294,Kiunga,-6.1219,141.2906,89.6,58,100,3.33,PG,1610337143
295,Khuzhir,53.1939,107.3397,16.72,90,100,5.01,RU,1610337143
296,Findochty,57.6974,-2.901,46.99,87,75,16.11,GB,1610337144
299,Gamba,-2.65,10.0,76.68,87,76,3.6,GA,1610337146
301,Claveria,18.6074,121.0832,71.33,79,88,12.73,PH,1610337147
302,Lima,-12.0432,-77.0282,69.8,83,90,12.66,PE,1610337148
303,Bonthe,7.5264,-12.505,77.94,89,25,6.51,SL,1610337148
305,Jiutai,44.1525,125.8328,14.0,57,0,13.42,CN,1610337149
310,Manche,49.0,-1.1667,37.4,87,90,9.22,FR,1610337152
311,Kathu,7.9178,98.3332,84.99,74,40,5.75,TH,1610337152
312,Bocas del Toro,9.3333,-82.25,76.32,83,100,6.78,PA,1610337153
314,Lebu,-37.6167,-73.65,55.24,85,99,7.38,CL,1610337154
315,Vila Franca do Campo,37.7167,-25.4333,55.4,94,75,11.5,PT,1610337054
317,Faanui,-16.4833,-151.75,81.77,69,100,16.13,PF,1610337156
322,Ancud,-41.8697,-73.8203,43.0,93,0,4.61,CL,1610336916
323,Benguela,-12.5763,13.4055,73.9,74,100,2.06,AO,1610337159
325,Suárez,2.954,-76.6964,66.15,80,87,1.86,CO,1610337160
327,Belyy Yar,53.6039,91.3903,17.6,79,0,6.71,RU,1610337161
330,Alta Floresta,-9.8756,-56.0861,72.1,96,55,2.62,BR,1610337162
334,Mareeba,-17.0,145.4333,87.8,70,75,5.75,AU,1610337164
335,Saint-Paul,-21.0096,55.2707,82.4,74,0,2.3,RE,1610337165
337,Dafeng,23.4517,108.5881,45.81,49,98,11.56,CN,1610337166
341,Sakakah,29.9697,40.2064,48.2,66,0,4.21,SA,1610337169
342,Korāput,18.8167,82.7167,77.59,32,1,1.03,IN,1610337169
343,Zaysan,47.4667,84.8667,12.22,91,97,1.63,KZ,1610337170
345,Kysyl-Syr,63.8986,122.7617,-32.4,83,100,2.3,RU,1610337171
348,Agia Marina,37.75,23.5333,64.99,78,100,1.99,GR,1610337172
350,Katsuura,35.1333,140.3,43.0,30,100,4.0,JP,1610337173
352,Te Anau,-45.4167,167.7167,67.08,41,74,2.06,NZ,1610337174
353,Alofi,-19.0595,-169.9187,84.2,70,75,11.5,NU,1610337175
354,Rodolfo Sánchez Taboada,31.7167,-116.5667,54.79,44,36,1.07,MX,1610336903
355,Níjar,36.9665,-2.206,46.99,76,20,9.22,ES,1610337176
356,Nyurba,63.2842,118.3319,-31.92,84,100,2.59,RU,1610337177
357,Along,28.1667,94.7667,61.79,63,97,0.65,IN,1610337178
359,Buriti,-22.9302,-45.3881,73.4,88,75,3.44,BR,1610337179
362,Watertown,42.3709,-71.1828,32.0,51,40,5.75,US,1610337000
365,Yumen,40.2833,97.2,21.54,62,46,34.43,CN,1610337012
366,Eureka,40.8021,-124.1637,50.0,91,100,1.01,US,1610337184
367,Kahului,20.8947,-156.47,80.6,54,40,17.27,US,1610337120
368,Sinait,17.8664,120.4583,78.8,65,20,9.22,PH,1610337101
369,Darhan,49.4867,105.9228,1.13,84,100,7.27,MN,1610337185
370,Santa Maria,-29.6842,-53.8069,82.4,65,0,5.75,BR,1610337186
371,Berdigestyakh,62.0989,126.6992,-26.99,84,99,2.06,RU,1610337081
372,Northam,51.0333,-4.2167,46.0,89,99,8.99,GB,1610337187
373,Cherskiy,68.75,161.3,-35.91,83,2,1.03,RU,1610337187
374,Aklavik,68.2191,-135.0107,1.4,85,100,1.14,CA,1610337188
376,Healdsburg,38.6105,-122.8692,50.0,93,90,1.01,US,1610337189
383,Nipawin,53.3668,-104.0009,10.4,92,75,4.61,CA,1610337193
384,Tabou,4.423,-7.3528,77.94,87,13,8.28,CI,1610337193
386,Bethel,41.3712,-73.414,27.0,74,1,3.44,US,1610337194
387,Vila Velha,-20.3297,-40.2925,78.8,83,20,6.91,BR,1610337195
390,Galveston,29.3669,-94.9669,42.01,81,90,23.02,US,1610337196
391,Hīt,33.6416,42.8251,48.87,46,0,5.84,IQ,1610337197
392,Mercedes,-34.6515,-59.4307,79.0,64,100,5.99,AR,1610337198
393,Adrar,20.5022,-10.0711,55.11,40,100,13.65,MR,1610337198
394,Pangody,65.85,74.4859,-22.11,82,17,6.29,RU,1610337199
396,George Town,5.4112,100.3354,84.2,61,20,9.22,MY,1610337200
398,Prince Rupert,54.3161,-130.3201,44.6,87,90,23.02,CA,1610336971
400,Barcelos,41.5388,-8.6151,41.0,56,0,9.22,PT,1610337202
402,Airai,-8.9266,125.4092,73.36,92,10,1.59,TL,1610336976
404,Ilulissat,69.2167,-51.1,19.4,79,75,3.44,GL,1610337204
406,Umluj,25.0213,37.2685,73.94,38,0,16.33,SA,1610337082
408,Basco,20.4487,121.9702,70.34,74,82,18.19,PH,1610337207
410,Sicuani,-14.2694,-71.2261,44.85,78,100,2.39,PE,1610337208
411,Évreux,49.0241,1.1508,34.0,93,90,3.44,FR,1610337208
414,Shimoda,34.6667,138.95,44.6,49,75,11.5,JP,1610337210
416,Vao,-22.6667,167.4833,77.58,90,100,14.12,NC,1610337211
418,Pundaguitan,6.3711,126.1689,81.3,82,100,16.37,PH,1610337212
427,Sibolga,1.7427,98.7792,86.2,59,82,4.21,ID,1610337217
428,Dillon,34.4166,-79.3712,37.99,100,1,2.35,US,1610337218
429,Fairbanks,64.8378,-147.7164,17.6,79,75,3.44,US,1610337115
436,Ahipara,-35.1667,173.1667,70.09,60,0,10.67,NZ,1610337222
440,Aswān,24.0934,32.907,60.15,62,0,9.8,EG,1610337224
442,Jalu,29.0331,21.5482,60.87,50,17,9.08,LY,1610337225
443,São Filipe,14.8961,-24.4956,69.15,73,55,16.67,CV,1610337021
444,Grand Island,40.925,-98.342,28.99,86,20,6.91,US,1610337227
448,Beisfjord,68.3751,17.5988,6.01,89,20,21.99,NO,1610337229
451,Waingapu,-9.6567,120.2641,87.01,63,93,5.1,ID,1610337230
454,Saint-Philippe,-21.3585,55.7679,80.6,89,40,10.36,RE,1610337232
457,Yenagoa,4.9247,6.2642,75.22,94,0,1.86,NG,1610337233
458,Beloha,-25.1667,45.05,78.48,72,0,9.66,MG,1610337234
460,Mehamn,71.0357,27.8492,14.38,92,51,18.61,NO,1610337235
461,Nikolskoye,59.7035,30.7861,6.01,85,0,6.71,RU,1610337236
465,Ürümqi,43.801,87.6005,-5.8,84,20,2.24,CN,1610337238
472,Port Lincoln,-34.7333,135.8667,72.32,67,87,22.88,AU,1610337241
476,Khandyga,62.6667,135.6,-35.95,82,100,0.56,RU,1610337244
479,Chipinge,-20.1883,32.6236,64.38,99,19,4.52,ZW,1610337246
481,La Palma,33.8464,-118.0467,60.8,36,1,2.33,US,1610337247
482,Kruisfontein,-34.0033,24.7314,66.99,79,95,3.0,ZA,1610337248
484,Beyneu,45.3167,55.2,27.45,91,77,10.54,KZ,1610337071
486,Avera,33.194,-82.5271,37.99,100,1,3.44,US,1610337250
489,Constitución,-35.3333,-72.4167,56.77,91,100,4.21,CL,1610337056
496,West Lake Stevens,47.9934,-122.1018,46.4,87,20,5.75,US,1610337256
498,Los Llanos de Aridane,28.6585,-17.9182,59.0,72,75,11.5,ES,1610337257
499,Sherlovaya Gora,50.5667,116.25,0.14,90,54,3.53,RU,1610337257
505,Cabañas,22.9758,-82.9219,64.4,82,40,8.05,CU,1610337260
508,Tessalit,20.1986,1.0114,60.84,43,13,10.33,ML,1610337262
513,San Andrés,12.5847,-81.7006,80.6,78,75,11.5,CO,1610337265
517,Dudinka,69.4058,86.1778,-3.44,92,100,11.45,RU,1610337267
520,Salalah,17.0151,54.0924,66.2,30,0,10.36,OM,1610337269
522,Amapá,1.0,-52.0,71.17,98,100,1.5,BR,1610337270
523,Ixtapa,20.7,-105.2,69.8,83,1,3.44,MX,1610337270
526,Oodweyne,9.4092,45.064,62.22,46,0,12.26,SO,1610337272
529,Inongo,-1.95,18.2667,72.91,87,91,6.96,CD,1610337274
535,Totness,5.8833,-56.3167,77.49,84,36,12.48,SR,1610337277
536,Birao,10.2849,22.7882,62.69,28,91,7.83,CF,1610337278
538,Makaha,21.4694,-158.2175,82.4,69,1,10.36,US,1610337279
539,Evensk,61.95,159.2333,7.7,90,100,17.13,RU,1610337280
542,Marzuq,14.4,46.4667,50.05,47,0,3.02,YE,1610337281
543,Grand-Lahou,5.1367,-5.0242,78.98,86,55,9.06,CI,1610337282
547,At-Bashi,41.1702,75.8106,9.03,48,0,3.15,KG,1610337284
548,‘Ewa Beach,21.3156,-158.0072,82.4,54,40,6.91,US,1610337285
551,Aksu,41.1231,80.2644,16.63,70,0,1.19,CN,1610337287
553,Broome,42.2506,-75.833,25.0,93,90,3.44,US,1610337288
557,Berbera,10.4396,45.0143,73.63,65,15,7.78,SO,1610337290
558,Barra Patuca,15.8,-84.2833,75.24,90,40,6.8,HN,1610337290
561,Zhangye,38.9342,100.4517,18.18,68,29,2.35,CN,1610337292
563,Naliya,23.2667,68.8333,67.41,28,5,17.36,IN,1610337293
564,Azare,11.6765,10.1948,64.04,28,27,8.14,NG,1610337294
569,Bogorodskoye,56.55,37.8833,-0.2,93,95,3.27,RU,1610337296
570,Chabahar,25.2919,60.643,62.58,31,0,4.47,IR,1610337297
571,Upata,8.0086,-62.3989,75.99,92,17,4.0,VE,1610337297
572,Isabela,6.7085,121.9711,86.0,70,75,6.91,PH,1610337298
575,Sørland,67.667,12.6934,34.12,84,34,18.19,NO,1610337008
576,Birin,26.8865,88.0718,57.92,61,1,4.74,NP,1610337300
578,Hambantota,6.1241,81.1185,78.8,100,40,3.44,LK,1610337301
582,Pahrump,36.2083,-115.9839,39.0,40,78,1.01,US,1610337032
583,Wau,7.7029,27.9953,64.0,27,9,5.46,SS,1610337304
587,Codrington,-38.2667,141.9667,94.69,19,100,19.98,AU,1610337010
588,La Romana,18.4273,-68.9728,69.8,100,75,9.91,DO,1610337306
591,Cockburn Town,21.4612,-71.1419,77.94,80,98,15.95,TC,1610337308
594,Severo-Kuril'sk,50.6789,156.125,20.75,87,98,18.21,RU,1610337310
598,Port-Gentil,-0.7193,8.7815,80.17,78,38,7.81,GA,1610337312
601,Narsaq,60.9167,-46.05,41.0,36,90,20.71,GL,1610337313
603,Almeirim,-1.5233,-52.5817,74.5,92,99,4.21,BR,1610337314
608,Palmer,42.1584,-72.3287,23.0,79,40,1.45,US,1610337317
609,Kharan,28.5833,65.4167,42.89,48,0,1.74,PK,1610337318
610,Pitimbu,-7.4706,-34.8086,80.6,78,75,6.91,BR,1610337319
611,Yeruham,30.9872,34.9314,54.43,57,0,5.37,IL,1610337320
615,Tefé,-3.3542,-64.7114,74.17,93,92,1.68,BR,1610337322
618,Kaka,37.3482,59.6143,39.16,57,0,1.34,TM,1610337324
620,Pečky,50.0904,15.0302,28.4,100,90,2.3,CZ,1610337325
622,Yangi Marg`ilon,40.4272,71.7189,21.2,63,0,6.91,UZ,1610337327
626,Statesville,35.7826,-80.8873,30.2,80,1,2.62,US,1610337251
627,Lata,40.1629,-8.3327,42.01,86,0,2.3,PT,1610337330
628,La Orilla,17.9833,-102.2333,71.89,85,92,4.03,MX,1610337315
629,Velsk,61.0701,42.0983,-12.71,89,9,4.45,RU,1610337331
631,Turan,16.0678,108.2208,66.2,72,75,11.5,VN,1610337332
633,Bilma,18.6853,12.9164,66.07,25,0,9.46,NE,1610337075
634,Padang,-0.9492,100.3543,86.7,58,79,3.85,ID,1610337334
636,Vadsø,70.0744,29.7487,12.2,79,75,23.02,NO,1610337335
637,Sechura,-5.5569,-80.8222,72.21,74,76,12.95,PE,1610337336
643,Tateyama,34.9833,139.8667,43.0,30,100,4.0,JP,1610337339
648,Aragarças,-15.8975,-52.2508,74.25,85,78,3.0,BR,1610337342
649,Verkhnyaya Toyma,62.2349,44.9985,-8.27,88,0,5.57,RU,1610337342
650,Erenhot,43.6475,111.9767,4.69,86,0,13.87,CN,1610337343
652,Fortuna,40.5982,-124.1573,50.0,100,1,3.22,US,1610337344
653,Portland,45.5234,-122.6762,46.0,81,75,8.05,US,1610337005
657,Fort Smith,35.3859,-94.3986,37.4,65,90,6.91,US,1610337346
660,The Valley,18.217,-63.0578,78.8,73,20,11.5,AI,1610337348
661,Puerto Escondido,15.85,-97.0667,75.2,78,1,2.93,MX,1610337349
662,Taoudenni,22.6783,-3.9836,56.39,40,64,11.18,ML,1610337349
663,Khasan,42.4308,130.6434,17.96,78,56,6.4,RU,1610337350
664,Hillsboro,45.5229,-122.9898,46.0,100,90,2.66,US,1610337350
668,Acaraú,-2.8856,-40.12,76.89,84,49,9.64,BR,1610337352
669,Luau,-10.7073,22.2247,64.6,99,100,4.97,AO,1610337353
676,Praia,14.9215,-23.5087,69.8,60,75,20.71,CV,1610337357
678,Iqaluit,63.7506,-68.5145,1.4,78,75,14.97,CA,1610337358
680,Torbay,47.6666,-52.7314,32.0,93,90,23.02,CA,1610337359
685,Ugoofaaru,5.6667,73.0,77.38,76,100,6.49,MV,1610337362
690,Sitka,57.0531,-135.33,42.8,81,90,13.8,US,1610337343
692,Pangnirtung,66.1451,-65.7125,4.39,90,87,2.13,CA,1610337366
695,Zyryanka,65.75,150.85,-34.26,83,97,2.06,RU,1610337368
697,Bastrop,32.7562,-91.8724,33.01,100,90,8.86,US,1610337369
701,Wewak,-3.5534,143.6268,85.77,67,100,5.97,PG,1610337371
704,Pokhara,28.2333,83.9833,69.84,23,88,3.94,NP,1610337328
710,Chunoyar,57.4467,97.3217,-3.53,90,100,2.75,RU,1610337376
712,Diapaga,12.0708,1.7889,71.31,21,0,6.98,BF,1610337378
713,Guadalupe y Calvo,26.1,-106.9667,34.52,81,0,3.78,MX,1610337378
714,Hong Kong,22.2855,114.1577,51.01,51,100,1.99,HK,1610337376
715,Plettenberg Bay,-34.0527,23.3716,63.14,82,3,5.44,ZA,1610337379
716,Blackwater,-23.5833,148.8833,88.12,43,45,13.65,AU,1610337380
718,Champerico,14.3,-91.9167,66.99,95,0,3.56,GT,1610337381
721,Windsor,42.3001,-83.0165,30.2,86,20,6.91,CA,1610337284
722,Ostrovnoy,68.0531,39.5131,6.44,93,13,13.76,RU,1610337384
723,Sola,-13.8833,167.55,87.8,79,75,4.61,VU,1610337385
724,Talnakh,69.4865,88.3972,-14.93,87,100,7.56,RU,1610337386
725,Renqiu,38.6989,116.0936,30.76,65,0,5.61,CN,1610337386
726,Tarko-Sale,64.9225,77.785,-27.78,86,2,6.87,RU,1610337387
732,Manavālakurichi,8.1333,77.3,80.6,78,75,5.08,IN,1610337391
733,Goiás,-15.5807,-49.6362,70.66,88,99,1.28,BR,1610337391
737,Kazachinskoye,57.6953,93.2761,-4.81,91,100,2.35,RU,1610337394
738,Vardø,70.3705,31.1107,12.2,79,75,23.02,NO,1610337394
739,Itarema,-2.9248,-39.9167,76.8,84,33,9.22,BR,1610337395
741,Kungurtug,50.5994,97.5228,4.62,87,100,0.63,RU,1610337396
742,Japura,-0.3167,102.35,80.42,83,100,4.05,ID,1610337397
743,Verkhotur'ye,58.8627,60.8054,-16.19,87,100,9.82,RU,1610337397
744,Mossamedes,-15.1961,12.1522,68.94,73,74,4.07,AO,1610337398
752,Shihezi,44.3,86.0333,0.16,89,5,2.42,CN,1610337403
753,Pevek,69.7008,170.3133,-27.53,87,100,2.89,RU,1610337404
754,Picota,-6.9197,-76.3304,72.77,90,11,0.85,PE,1610337404
756,Cururupu,-1.8283,-44.8683,75.27,93,10,3.62,BR,1610337405
757,Okhotsk,59.3833,143.3,-11.94,80,70,15.17,RU,1610337406
764,Churapcha,62.0025,132.4325,-38.83,80,89,1.32,RU,1610337409
765,Maceió,-9.6658,-35.7353,73.4,94,20,3.44,BR,1610337229
767,Daru,-9.0763,143.2092,80.91,81,100,4.45,PG,1610337411
769,Ambilobe,-13.2,49.05,77.45,88,41,1.7,MG,1610337412
770,Mapiripán,2.8892,-72.1256,73.06,93,97,3.38,CO,1610337412
771,Clyde River,70.4692,-68.5914,5.0,92,90,12.66,CA,1610337413
774,Salamanca,40.8333,-6.0,28.0,49,2,11.27,ES,1610337415
775,Aykhal,66.0,111.5,-36.38,80,19,2.46,RU,1610337415
776,Zhigansk,66.7697,123.3711,-38.04,82,100,7.34,RU,1610337416
784,Bragança,-1.0536,-46.7656,74.37,97,98,2.44,BR,1610337420
787,Sur,22.5667,59.5289,67.3,42,0,10.92,OM,1610337422
788,Hirara,24.8,125.2833,66.2,59,75,12.66,JP,1610337423
789,Petropavlovsk-Kamchatskiy,53.0452,158.6483,10.4,61,35,4.47,RU,1610337423
790,Hojāi,26.0,92.8667,67.93,68,94,1.72,IN,1610337424
793,Henderson,36.0397,-114.9819,46.4,36,1,6.91,US,1610337282
794,Lavrentiya,65.5833,-171.0,-15.09,83,100,13.62,RU,1610337426
796,Kainantu,-6.2887,145.8655,75.49,64,100,4.12,PG,1610337427
797,Luanda,-8.8368,13.2343,75.2,78,75,3.44,AO,1610337428
799,Yershov,51.3513,48.2766,15.98,97,84,6.69,RU,1610337429
800,Orán,-23.1322,-64.326,82.99,85,100,1.63,AR,1610337429
807,Tucumã,-0.1833,-50.05,76.62,91,91,7.31,BR,1610337434
808,Jaruco,23.0431,-82.0108,64.4,82,40,8.05,CU,1610337434
810,Santiago,-33.4569,-70.6483,62.6,45,0,10.36,CL,1610337276
811,La Tuque,47.4334,-72.7824,14.0,85,100,2.3,CA,1610337372
814,Butterworth,5.3991,100.3638,84.2,61,20,9.22,MY,1610337438
815,Mariehamn,60.0973,19.9348,28.4,86,75,2.3,AX,1610337439
816,Grand-Santi,4.25,-54.3833,71.37,97,100,2.24,GF,1610337439
817,Cartagena,10.3997,-75.5144,80.6,89,75,9.22,CO,1610337440
818,Kuminskiy,58.6667,66.5667,-20.61,88,100,7.81,RU,1610337440
824,Chara,56.9064,118.2631,-12.12,78,95,0.49,RU,1610337444
827,Lüderitz,-26.6481,15.1594,65.71,71,40,12.08,NA,1610337446
833,Manjacaze,-24.7117,33.8828,72.84,85,14,4.72,MZ,1610337449
838,Mil'kovo,54.7167,158.6167,9.12,88,89,1.57,RU,1610337452
846,Kadoma,34.7333,135.5833,43.0,56,75,3.44,JP,1610337456
850,Wakkanai,45.4094,141.6739,17.6,67,75,18.41,JP,1610337459
853,Camaçari,-12.6975,-38.3242,82.4,78,20,11.5,BR,1610337193
854,Porto Belo,-27.1578,-48.5531,78.8,83,75,9.22,BR,1610337461
859,Longyearbyen,78.2186,15.6401,24.8,80,40,11.5,SJ,1610337465
860,Port Hardy,50.6996,-127.4199,46.4,93,90,23.02,CA,1610337466
866,Castrillón,43.3979,-6.7922,35.6,87,75,2.3,ES,1610337469
872,Conakry,9.538,-13.6773,78.67,76,0,9.22,GN,1610337472
877,Nushki,29.5542,66.0215,40.39,56,0,0.34,PK,1610337475
879,Gizo Government Station,-8.103,156.8419,82.98,74,100,8.46,SB,1610337476
882,Alice Springs,-23.7,133.8833,93.2,21,40,8.05,AU,1610337451
883,Ranong,9.9658,98.6348,84.2,65,40,3.44,TH,1610337478
889,Salé,34.0389,-6.8166,46.4,93,75,5.75,MA,1610337481
892,Harrismith,-28.2728,29.1295,57.92,91,100,7.96,ZA,1610337483
897,Mana,5.6592,-53.7767,77.54,86,95,11.65,GF,1610337486
898,Woodward,36.4337,-99.3904,34.0,93,90,2.46,US,1610337486
901,Laas,46.6166,10.7002,18.0,72,0,9.22,IT,1610337488
902,Helsinki,60.1695,24.9355,32.0,93,75,16.11,FI,1610337472
905,Vestmannaeyjar,63.4427,-20.2734,28.04,85,0,6.55,IS,1610337490
907,Mazagão,-0.115,-51.2894,77.0,94,0,2.3,BR,1610337491
908,Xinyu,27.8043,114.9334,46.11,50,54,3.36,CN,1610337492
915,Port Macquarie,-31.4333,152.9167,80.6,50,40,11.5,AU,1610337496
918,Nioro,13.35,-15.75,68.02,32,0,9.78,GM,1610337497
922,Dakar,14.6937,-17.4441,68.0,73,92,16.11,SN,1610337265
924,Denpasar,-8.65,115.2167,86.0,79,40,5.75,ID,1610337501
927,Takapau,-40.0333,176.35,66.0,72,58,10.0,NZ,1610337503
932,Galesong,-5.3166,119.3661,84.2,74,20,2.3,ID,1610337506
934,Chapais,49.7834,-74.8492,14.0,92,90,6.91,CA,1610337507
935,Pisco,-13.7,-76.2167,69.8,83,0,12.66,PE,1610337507
936,Jatiroto,-7.8833,111.1167,84.31,69,79,3.33,ID,1610337508
940,Belaya Gora,68.5333,146.4167,-35.91,84,2,3.04,RU,1610337510
947,Mergen,49.1833,125.2167,-1.35,87,100,3.69,CN,1610337514
956,Hołoby,51.0865,25.0077,29.88,97,99,3.44,UA,1610337519
959,Xam Nua,20.4197,104.0439,41.16,63,99,4.43,LA,1610337521
963,Troianul,44.0,25.0,36.0,93,100,18.16,RO,1610337524
974,Leça da Palmeira,41.191,-8.7003,41.0,56,0,9.22,PT,1610337530
977,Abu Dhabi,24.4667,54.3667,55.4,67,0,11.12,AE,1610337532
979,Tshela,-4.9833,12.9333,69.26,94,100,1.1,CD,1610337533
980,Guerrero Negro,27.9769,-114.0611,61.25,40,0,3.94,MX,1610337534
984,Havre-St-Pierre,50.2334,-63.5986,5.0,85,20,5.75,CA,1610337536
987,Sinnamary,5.3833,-52.95,77.14,86,93,12.75,GF,1610337537
988,Gimbi,9.1667,35.8333,52.36,62,97,1.43,ET,1610337538
991,Shetpe,44.1667,52.1167,30.63,98,99,11.59,KZ,1610337540
993,Sagna,46.9833,27.0167,30.0,93,100,2.3,RO,1610337542
996,Bonavista,48.6499,-53.1147,32.0,100,100,8.05,CA,1610337544
1002,Karasjok,69.4719,25.5112,10.4,67,90,34.52,NO,1610337547
1005,Necochea,-38.5473,-58.7368,62.01,92,100,9.78,AR,1610337548
1008,Luang Prabang,19.8856,102.1347,57.2,82,90,9.22,LA,1610337550
1015,Umeå,63.8284,20.2597,23.0,93,75,8.05,SE,1610337554
1020,Sivas Province,39.7916,37.0019,41.0,87,90,9.22,TR,1610337519
1022,Oranjemund,-28.55,16.4333,61.39,88,20,9.17,NA,1610337558
1033,Baharly,38.4362,57.4316,41.63,51,0,3.31,TM,1610337565
1034,Qasigiannguit,68.8193,-51.1922,19.4,79,75,3.44,GL,1610337565
1038,São João da Barra,-21.6403,-41.0511,76.8,87,42,17.83,BR,1610337567
1040,Pushkinskiye Gory,57.0209,28.9103,13.1,96,73,5.3,RU,1610337569
1042,Srednekolymsk,67.45,153.6833,-35.9,83,41,2.24,RU,1610337570
1049,Hearst,49.6835,-83.6665,24.8,100,96,5.75,CA,1610337573
1050,Mnogovershinnyy,53.9353,139.9242,-13.52,85,83,5.28,RU,1610337575
1054,Tasiilaq,65.6145,-37.6368,17.6,67,90,4.61,GL,1610337577
1055,Inhambane,-23.865,35.3833,78.19,81,34,9.48,MZ,1610337578
1056,Mataura,-46.1927,168.8643,57.99,69,77,13.0,NZ,1610337578
1060,Busselton,-33.65,115.3333,77.0,42,1,5.01,AU,1610337581
1061,Sulangan,11.1373,123.7228,80.42,83,84,24.52,PH,1610337581
1072,Nguru,12.8791,10.4526,64.69,27,0,9.51,NG,1610337588
1073,Road Town,18.4167,-64.6167,78.01,93,57,1.99,VG,1610337588
1075,Lodja,-3.4833,23.4333,68.31,90,91,1.72,CD,1610337590
1076,Warrnambool,-38.3833,142.4833,93.99,26,100,8.99,AU,1610337591
1077,Marawi,7.9986,124.2928,75.42,83,97,3.69,PH,1610337591
1078,Upernavik,72.7868,-56.1549,11.79,86,99,13.76,GL,1610337592
1080,Pilar,-9.5972,-35.9567,73.4,94,20,3.44,BR,1610337593
1081,Vytegra,61.0064,36.4481,5.11,94,98,5.37,RU,1610337593
1083,Husavik,66.0449,-17.3389,19.4,79,90,4.61,IS,1610337594
1084,Punta Arenas,-53.15,-70.9167,42.8,70,40,9.22,CL,1610337595
1087,Albany,42.6001,-73.9662,23.0,100,75,2.06,US,1610337469
1088,Kiama,-34.6833,150.8667,82.0,65,48,15.01,AU,1610337597
1089,Moose Factory,51.2585,-80.6094,19.4,93,90,16.11,CA,1610337598
1093,Adeje,28.1227,-16.726,60.01,72,20,4.61,ES,1610337600
1094,Salinas,36.6777,-121.6555,55.4,67,1,3.44,US,1610337601
1095,Beringovskiy,63.05,179.3167,-21.05,84,7,13.67,RU,1610337603
1096,Bhadrāchalam,17.6667,80.8833,79.12,49,84,1.83,IN,1610337421
1101,Moissac,44.1024,1.0945,28.0,93,0,4.61,FR,1610337606
1103,Madison,34.7334,-86.5667,36.0,69,90,5.75,US,1610337480
